{"num_used": 10, "hold": -1, "class": "TPV", "eps": 0.3, "epv": 38.41, "speed": 0.009, "lat": 43.616054731, "lon": -71.12850632, "climb": 0.023, "epc": 76.82, "track": 159.5928, "alt": 174.863, "device": "/dev/serial0", "time": "2021-10-23T12:54:07.000Z", "ept": 0.005, "mode": 3, "epx": 52.345, "epy": 59.616, "num_sat": 14, "mileage": 6.97989931983419, "certainty": 0.5879452803043416}
{"temp": 36.476, "gyro_y": -3.3600000000000003, "gyro_x": -4.340000000000001, "mag_z": 776.5, "gyro_z": -0.35000000000000003, "device": "LSM9DS1", "mag_st": "N", "acc_y": -0.5407779075999999, "acc_len": 10.698645669385405, "roll": -1.6634555062438778, "time": "2021-10-23T12:54:07.006971Z", "yaw": -20.323374250759915, "pitch_st": "N", "mag_x": 1182.0, "acc_z": 10.652846215199999, "acc_x": 0.8279166195999998, "class": "ATT", "mag_y": -555.5, "heading": 244.82806362251586, "pitch": -2.8884615467117154, "mag_len": 1519.426372023337, "roll_st": "N", "yaw_st": "N", "gyro_x_angle": 245.7785027499998, "gyro_y_angle": 285.3046179799997, "gyro_z_angle": 341.85017753999955, "lat": 43.61605817383154, "lon": -71.12850672813492, "alt": 174.937477175, "mileage": 6.979838710636794, "certainty": 0.5898699938883792}
{"temp": 36.476, "gyro_y": -2.3800000000000003, "gyro_x": -4.41, "mag_z": 755.5, "gyro_z": -0.77, "device": "LSM9DS1", "mag_st": "N", "acc_y": 0.3134597605999999, "acc_len": 10.274794175588736, "roll": -1.7596913501483442, "time": "2021-10-23T12:54:07.036499Z", "yaw": -18.738966789578562, "pitch_st": "N", "mag_x": 1150.0, "acc_z": 10.255637663599998, "acc_x": 0.5431707301999998, "class": "ATT", "mag_y": -571.5, "heading": 243.5746213502157, "pitch": -2.923291390415386, "mag_len": 1489.9303675004412, "roll_st": "N", "yaw_st": "N", "gyro_x_angle": 245.6482842699998, "gyro_y_angle": 285.23434133999973, "gyro_z_angle": 341.82744097999955, "lat": 43.616058071457964, "lon": -71.12850671599891, "alt": 174.935262575, "mileage": 6.9798405241802985, "certainty": 0.5898127728412305}
{"temp": 36.476, "gyro_y": -2.3800000000000003, "gyro_x": -3.08, "mag_z": 759.5, "gyro_z": -0.49000000000000005, "device": "LSM9DS1", "mag_st": "N", "acc_y": 0.6149554081999998, "acc_len": 10.67468655027865, "roll": -1.7728271414805477, "time": "2021-10-23T12:54:07.066059Z", "yaw": -18.72418632270363, "pitch_st": "N", "mag_x": 1186.0, "acc_z": 10.655239037799998, "acc_x": -0.19142580799999998, "class": "ATT", "mag_y": -559.5, "heading": 244.74422701568884, "pitch": -2.887946740765132, "mag_len": 1515.4129800156788, "roll_st": "N", "yaw_st": "N", "gyro_x_angle": 245.55723946999981, "gyro_y_angle": 285.1639885399997, "gyro_z_angle": 341.81295657999954, "lat": 43.61605796897344, "lon": -71.12850670384975, "alt": 174.933045575, "mileage": 6.979842338993883, "certainty": 0.5897554890753258}
{"temp": 36.476, "gyro_y": -3.7100000000000004, "gyro_x": -1.6800000000000002, "mag_z": 785.5, "gyro_z": -0.6300000000000001, "device": "LSM9DS1", "mag_st": "N", "acc_y": 0.36849468039999994, "acc_len": 9.736717411817102, "roll": -1.7561573865725961, "time": "2021-10-23T12:54:07.095660Z", "yaw": -19.646912381783594, "pitch_st": "N", "mag_x": 1156.0, "acc_z": 9.700502820399999, "acc_x": -0.7537391189999999, "class": "ATT", "mag_y": -561.5, "heading": 244.09291910570892, "pitch": -2.835424476876027, "mag_len": 1506.1967003017899, "roll_st": "N", "yaw_st": "N", "gyro_x_angle": 245.5075097899998, "gyro_y_angle": 285.0541688299997, "gyro_z_angle": 341.79430794999956, "lat": 43.61605786634678, "lon": -71.12850669168374, "alt": 174.9308255, "mileage": 6.9798441556274335, "certainty": 0.5896981251436796}
{"temp": 36.476, "gyro_y": -4.2, "gyro_x": -3.5000000000000004, "mag_z": 787.5, "gyro_z": -0.56, "device": "LSM9DS1", "mag_st": "N", "acc_y": -0.12681959779999996, "acc_len": 10.012764382731115, "roll": -1.7328576211112363, "time": "2021-10-23T12:54:07.125186Z", "yaw": -21.221133824261624, "pitch_st": "N", "mag_x": 1156.0, "acc_z": 9.966106128999998, "acc_x": -0.9571290399999998, "class": "ATT", "mag_y": -551.5, "heading": 244.49530489799335, "pitch": -2.8945794208838755, "mag_len": 1503.5439800684248, "roll_st": "N", "yaw_st": "N", "gyro_x_angle": 245.4041687899998, "gyro_y_angle": 284.9301596299997, "gyro_z_angle": 341.77777338999954, "lat": 43.61605776398014, "lon": -71.12850667954855, "alt": 174.92861105, "mileage": 6.979845966963245, "certainty": 0.58964090585397}
{"temp": 36.476, "gyro_y": -0.9100000000000001, "gyro_x": -3.9200000000000004, "mag_z": 779.5, "gyro_z": -0.6300000000000001, "device": "LSM9DS1", "mag_st": "N", "acc_y": 0.6340979889999999, "acc_len": 10.00682702599536, "roll": -1.6508580795952668, "time": "2021-10-23T12:54:07.154656Z", "yaw": -21.721362267531745, "pitch_st": "N", "mag_x": 1154.0, "acc_z": 9.966106128999998, "acc_x": -0.6412764567999999, "class": "ATT", "mag_y": -551.5, "heading": 244.45672709828904, "pitch": -2.8771296234722175, "mag_len": 1497.8279273668254, "roll_st": "N", "yaw_st": "N", "gyro_x_angle": 245.2886463899998, "gyro_y_angle": 284.9033419299997, "gyro_z_angle": 341.75920728999955, "lat": 43.616057661807645, "lon": -71.12850666743638, "alt": 174.92640079999998, "mileage": 6.9798477741719935, "certainty": 0.5895837943925346}
{"temp": 36.476, "gyro_y": -1.7500000000000002, "gyro_x": -4.130000000000001, "mag_z": 757.5, "gyro_z": -0.6300000000000001, "device": "LSM9DS1", "mag_st": "N", "acc_y": 0.9571290399999998, "acc_len": 10.467746722005963, "roll": -1.7131525227247124, "time": "2021-10-23T12:54:07.184198Z", "yaw": -20.844634806730166, "pitch_st": "N", "mag_x": 1174.0, "acc_z": 10.415956777799998, "acc_x": 0.4067798419999999, "class": "ATT", "mag_y": -547.5, "heading": 244.9978028856827, "pitch": -2.8339571939470307, "mag_len": 1500.612708196222, "roll_st": "N", "yaw_st": "N", "gyro_x_angle": 245.1666379299998, "gyro_y_angle": 284.85164342999974, "gyro_z_angle": 341.74059582999956, "lat": 43.61605755938553, "lon": -71.12850665529463, "alt": 174.92418515, "mileage": 6.979849585102188, "certainty": 0.5895265427083919}
{"temp": 36.476, "gyro_y": -2.1, "gyro_x": -2.87, "mag_z": 760.5, "gyro_z": -0.77, "device": "LSM9DS1", "mag_st": "N", "acc_y": 0.05024927459999999, "acc_len": 10.03589792126691, "roll": -1.7672249794804031, "time": "2021-10-23T12:54:07.223017Z", "yaw": -19.339315627596413, "pitch_st": "N", "mag_x": 1164.0, "acc_z": 10.035497984399997, "acc_x": 0.07417750059999999, "class": "ATT", "mag_y": -545.5, "heading": 244.8902098110844, "pitch": -2.880689994324382, "mag_len": 1493.595159338701, "roll_st": "N", "yaw_st": "N", "gyro_x_angle": 245.0552273999998, "gyro_y_angle": 284.77012352999975, "gyro_z_angle": 341.71070519999955, "lat": 43.61605742480006, "lon": -71.12850663934002, "alt": 174.921273725, "mileage": 6.979851963658278, "certainty": 0.5894513113629073}
{"temp": 36.476, "gyro_y": -2.87, "gyro_x": -4.970000000000001, "mag_z": 778.5, "gyro_z": -0.42000000000000004, "device": "LSM9DS1", "mag_st": "N", "acc_y": 1.1892328321999999, "acc_len": 9.999697544481728, "roll": -1.7862225993388279, "time": "2021-10-23T12:54:07.252793Z", "yaw": -19.20780378193271, "pitch_st": "N", "mag_x": 1174.0, "acc_z": 9.925428144799998, "acc_x": -0.25603201819999993, "class": "ATT", "mag_y": -575.5, "heading": 243.88570159929318, "pitch": -2.8317094725800445, "mag_len": 1521.6893572605416, "roll_st": "N", "yaw_st": "N", "gyro_x_angle": 244.9072406799998, "gyro_y_angle": 284.68466640999975, "gyro_z_angle": 341.6981992799995, "lat": 43.616057321566664, "lon": -71.12850662710208, "alt": 174.91904052499999, "mileage": 6.9798537873105815, "certainty": 0.5893936045837422}
{"temp": 36.476, "gyro_y": -3.22, "gyro_x": -4.130000000000001, "mag_z": 774.5, "gyro_z": -0.35000000000000003, "device": "LSM9DS1", "mag_st": "N", "acc_y": 1.0935199281999999, "acc_len": 8.903960724652057, "roll": -1.78463641759555, "time": "2021-10-23T12:54:07.282400Z", "yaw": -19.2874463882632, "pitch_st": "N", "mag_x": 1158.0, "acc_z": 8.824729748799998, "acc_x": -0.4570291165999999, "class": "ATT", "mag_y": -553.5, "heading": 244.4531670258635, "pitch": -2.7536352864106277, "mag_len": 1499.0585378830274, "roll_st": "N", "yaw_st": "N", "gyro_x_angle": 244.7849637699998, "gyro_y_angle": 284.58933186999974, "gyro_z_angle": 341.6878368299995, "lat": 43.616057218919195, "lon": -71.1285066149336, "alt": 174.91682, "mileage": 6.979855599912635, "certainty": 0.5893362246404745}
{"temp": 36.476, "gyro_y": -4.41, "gyro_x": -3.22, "mag_z": 779.5, "gyro_z": -0.9100000000000001, "device": "LSM9DS1", "mag_st": "N", "acc_y": 0.9068797653999998, "acc_len": 9.053389371005549, "roll": -1.8272145284026777, "time": "2021-10-23T12:54:07.311988Z", "yaw": -19.393520836107133, "pitch_st": "N", "mag_x": 1178.0, "acc_z": 8.999405798599998, "acc_x": -0.3900300837999999, "class": "ATT", "mag_y": -555.5, "heading": 244.75321769232625, "pitch": -2.676865611185957, "mag_len": 1517.8552302508958, "roll_st": "N", "yaw_st": "N", "gyro_x_angle": 244.6896904099998, "gyro_y_angle": 284.45884878999976, "gyro_z_angle": 341.6609117499995, "lat": 43.6160571163376, "lon": -71.12850660277293, "alt": 174.91460089999998, "mileage": 6.979857410654982, "certainty": 0.5892788808412937}
{"temp": 36.476, "gyro_y": -2.45, "gyro_x": -3.5000000000000004, "mag_z": 778.5, "gyro_z": -0.49000000000000005, "device": "LSM9DS1", "mag_st": "N", "acc_y": 0.8063812161999998, "acc_len": 9.377834440780456, "roll": -1.776860721530852, "time": "2021-10-23T12:54:07.341472Z", "yaw": -19.83015169026336, "pitch_st": "N", "mag_x": 1184.0, "acc_z": 9.317651204399999, "acc_x": -0.6891329087999999, "class": "ATT", "mag_y": -549.5, "heading": 245.10376253348235, "pitch": -2.625529497227304, "mag_len": 1519.8251544174416, "roll_st": "N", "yaw_st": "N", "gyro_x_angle": 244.5864964099998, "gyro_y_angle": 284.3866129899998, "gyro_z_angle": 341.64646458999954, "lat": 43.61605701411657, "lon": -71.12850659065501, "alt": 174.91238959999998, "mileage": 6.979859214340126, "certainty": 0.5892217379325613}
{"temp": 37.014, "gyro_y": -2.9400000000000004, "gyro_x": -2.5200000000000005, "mag_z": 758.5, "gyro_z": -0.56, "device": "LSM9DS1", "mag_st": "N", "acc_y": 1.2634103327999997, "acc_len": 10.411699069041232, "roll": -1.8326089119917128, "time": "2021-10-23T12:54:07.370944Z", "yaw": -19.397672231209977, "pitch_st": "N", "mag_x": 1196.0, "acc_z": 10.334600809399998, "acc_x": 0.05742774239999999, "class": "ATT", "mag_y": -573.5, "heading": 244.38158100511953, "pitch": -2.5064085065024817, "mag_len": 1527.9530424721827, "roll_st": "N", "yaw_st": "N", "gyro_x_angle": 244.5122269699998, "gyro_y_angle": 284.2999653099998, "gyro_z_angle": 341.6299602699995, "lat": 43.61605691193715, "lon": -71.12850657854202, "alt": 174.9101792, "mileage": 6.979861016600258, "certainty": 0.5891646176208941}
{"temp": 36.476, "gyro_y": -0.14, "gyro_x": -4.83, "mag_z": 780.5, "gyro_z": -0.77, "device": "LSM9DS1", "mag_st": "N", "acc_y": 0.7944171031999998, "acc_len": 9.455734964466009, "roll": -1.63706902174944, "time": "2021-10-23T12:54:07.400426Z", "yaw": -20.21692069861522, "pitch_st": "N", "mag_x": 1186.0, "acc_z": 9.327222494799997, "acc_x": -1.3351950107999997, "class": "ATT", "mag_y": -561.5, "heading": 244.66524686849814, "pitch": -2.4984188282984263, "mag_len": 1526.780436081102, "roll_st": "N", "yaw_st": "N", "gyro_x_angle": 244.3698289099998, "gyro_y_angle": 284.29583782999975, "gyro_z_angle": 341.60725912999953, "lat": 43.616056809723055, "lon": -71.12850656642492, "alt": 174.90796805, "mileage": 6.979862818780877, "certainty": 0.589107477269075}
{"temp": 36.476, "gyro_y": -1.4000000000000001, "gyro_x": -5.880000000000001, "mag_z": 790.5, "gyro_z": -0.28, "device": "LSM9DS1", "mag_st": "N", "acc_y": 0.9571290399999998, "acc_len": 8.530430020142765, "roll": -1.4870961351523704, "time": "2021-10-23T12:54:07.429962Z", "yaw": -20.831558880725876, "pitch_st": "N", "mag_x": 1182.0, "acc_z": 8.396414503399999, "acc_x": -1.1629117835999998, "class": "ATT", "mag_y": -581.5, "heading": 243.80453113908789, "pitch": -2.4883837054329514, "mag_len": 1536.2800851407271, "roll_st": "N", "yaw_st": "N", "gyro_x_angle": 244.19615722999978, "gyro_y_angle": 284.25448742999976, "gyro_z_angle": 341.59898904999955, "lat": 43.616056707321746, "lon": -71.12850655428562, "alt": 174.90575285, "mileage": 6.9798646235694735, "certainty": 0.5890502315951095}
{"temp": 36.476, "gyro_y": -3.0100000000000002, "gyro_x": -3.22, "mag_z": 764.5, "gyro_z": -0.7000000000000001, "device": "LSM9DS1", "mag_st": "N", "acc_y": -0.8997012975999998, "acc_len": 10.54832033591172, "roll": -1.5885626407910252, "time": "2021-10-23T12:54:07.459448Z", "yaw": -17.319232909361265, "pitch_st": "N", "mag_x": 1170.0, "acc_z": 10.502098391399997, "acc_x": 0.40438701939999994, "class": "ATT", "mag_y": -565.5, "heading": 244.20397350550004, "pitch": -2.629729559354552, "mag_len": 1507.6970849610343, "roll_st": "N", "yaw_st": "N", "gyro_x_angle": 244.1012123099998, "gyro_y_angle": 284.16573456999976, "gyro_z_angle": 341.57834884999954, "lat": 43.61605660509378, "lon": -71.12850654216687, "alt": 174.9035414, "mileage": 6.979866424611261, "certainty": 0.5889930821801771}
{"temp": 36.476, "gyro_y": -2.31, "gyro_x": -4.48, "mag_z": 776.5, "gyro_z": -0.42000000000000004, "device": "LSM9DS1", "mag_st": "N", "acc_y": -0.6053841177999999, "acc_len": 9.984480603124817, "roll": -1.6226521774278098, "time": "2021-10-23T12:54:07.489100Z", "yaw": -20.56690730129702, "pitch_st": "N", "mag_x": 1174.0, "acc_z": 9.966106128999998, "acc_x": -0.009571290399999998, "class": "ATT", "mag_y": -565.5, "heading": 244.28050902758844, "pitch": -2.7765217358406526, "mag_len": 1516.9108411505272, "roll_st": "N", "yaw_st": "N", "gyro_x_angle": 243.96837134999979, "gyro_y_angle": 284.09723844999974, "gyro_z_angle": 341.56589500999956, "lat": 43.6160565022903, "lon": -71.1285065299799, "alt": 174.9013175, "mileage": 6.979868235095605, "certainty": 0.5889356103714127}
{"temp": 35.938, "gyro_y": -2.31, "gyro_x": -3.22, "mag_z": 783.5, "gyro_z": -0.35000000000000003, "device": "LSM9DS1", "mag_st": "N", "acc_y": 0.9044869427999999, "acc_len": 10.252176251816584, "roll": -1.6343996056976806, "time": "2021-10-23T12:54:07.518654Z", "yaw": -20.41918776941957, "pitch_st": "N", "mag_x": 1196.0, "acc_z": 10.210174034199998, "acc_x": -0.20338992099999995, "class": "ATT", "mag_y": -567.5, "heading": 244.61573873153918, "pitch": -2.713170605439913, "mag_len": 1538.2927224686464, "roll_st": "N", "yaw_st": "N", "gyro_x_angle": 243.87320746999978, "gyro_y_angle": 284.02896870999973, "gyro_z_angle": 341.55555110999956, "lat": 43.61605639982658, "lon": -71.1285065178332, "alt": 174.89910095, "mileage": 6.979870038900886, "certainty": 0.5888783278532344}
{"temp": 36.476, "gyro_y": -2.1, "gyro_x": -0.6300000000000001, "mag_z": 791.5, "gyro_z": -0.7000000000000001, "device": "LSM9DS1", "mag_st": "N", "acc_y": 0.8638089585999998, "acc_len": 10.17480222772279, "roll": -1.6075692435084505, "time": "2021-10-23T12:54:07.548274Z", "yaw": -20.618069250299996, "pitch_st": "N", "mag_x": 1180.0, "acc_z": 10.126425243199998, "acc_x": -0.4857429877999999, "class": "ATT", "mag_y": -557.5, "heading": 244.71125033264113, "pitch": -2.5796286350289037, "mag_len": 1526.328437787883, "roll_st": "N", "yaw_st": "N", "gyro_x_angle": 243.85454686999978, "gyro_y_angle": 283.9667667099997, "gyro_z_angle": 341.53481710999955, "lat": 43.61605629713404, "lon": -71.12850650565939, "alt": 174.89687945, "mileage": 6.979871846038166, "certainty": 0.588820916775807}
{"temp": 36.476, "gyro_y": -2.7300000000000004, "gyro_x": -2.3800000000000003, "mag_z": 772.5, "gyro_z": -0.49000000000000005, "device": "LSM9DS1", "mag_st": "N", "acc_y": 0.03828516159999999, "acc_len": 9.030839011043623, "roll": -1.6082848173152513, "time": "2021-10-23T12:54:07.577882Z", "yaw": -21.900547065511375, "pitch_st": "N", "mag_x": 1182.0, "acc_z": 9.023334024599999, "acc_x": -0.36610185779999993, "class": "ATT", "mag_y": -547.5, "heading": 245.14652360642864, "pitch": -2.592337460975788, "mag_len": 1514.475651834654, "roll_st": "N", "yaw_st": "N", "gyro_x_angle": 243.78407982999977, "gyro_y_angle": 283.88593686999974, "gyro_z_angle": 341.5203091899995, "lat": 43.61605619448311, "lon": -71.1285064934905, "alt": 174.89465884999998, "mileage": 6.979873651746627, "certainty": 0.5887635283216067}
{"temp": 36.476, "gyro_y": -3.22, "gyro_x": -3.9200000000000004, "mag_z": 772.5, "gyro_z": -0.56, "device": "LSM9DS1", "mag_st": "N", "acc_y": -0.9332008139999998, "acc_len": 10.540387898647412, "roll": -1.709652226680845, "time": "2021-10-23T12:54:07.607387Z", "yaw": -18.30971645867062, "pitch_st": "N", "mag_x": 1174.0, "acc_z": 10.492527100999999, "acc_x": 0.36849468039999994, "class": "ATT", "mag_y": -559.5, "heading": 244.5186606279866, "pitch": -2.755729665180507, "mag_len": 1512.6375970469596, "roll_st": "N", "yaw_st": "N", "gyro_x_angle": 243.66842022999978, "gyro_y_angle": 283.79093076999976, "gyro_z_angle": 341.5037863899995, "lat": 43.61605609218927, "lon": -71.12850648136394, "alt": 174.892445975, "mileage": 6.979875450480588, "certainty": 0.5887063388635777}
{"temp": 36.476, "gyro_y": -2.9400000000000004, "gyro_x": -4.340000000000001, "mag_z": 759.5, "gyro_z": -0.7000000000000001, "device": "LSM9DS1", "mag_st": "N", "acc_y": 1.0289137179999999, "acc_len": 10.475271219626293, "roll": -1.840427444165357, "time": "2021-10-23T12:54:07.636874Z", "yaw": -17.258558094370212, "pitch_st": "N", "mag_x": 1156.0, "acc_z": 10.399207019599999, "acc_x": 0.7274180703999998, "class": "ATT", "mag_y": -567.5, "heading": 243.8527956847986, "pitch": -2.712995565085629, "mag_len": 1495.0693963826561, "roll_st": "N", "yaw_st": "N", "gyro_x_angle": 243.54044664999978, "gyro_y_angle": 283.70423898999974, "gyro_z_angle": 341.4831454899995, "lat": 43.61605598995784, "lon": -71.12850646924478, "alt": 174.89023445, "mileage": 6.979877247426218, "certainty": 0.5886491836765684}
{"temp": 36.476, "gyro_y": -2.7300000000000004, "gyro_x": -5.460000000000001, "mag_z": 795.5, "gyro_z": -0.77, "device": "LSM9DS1", "mag_st": "N", "acc_y": -0.5862415369999999, "acc_len": 9.821350490892648, "roll": -1.8939287749655023, "time": "2021-10-23T12:54:07.674804Z", "yaw": -20.3610421851114, "pitch_st": "N", "mag_x": 1178.0, "acc_z": 9.803394192199997, "acc_x": -0.09332008139999998, "class": "ATT", "mag_y": -563.5, "heading": 244.4357323742147, "pitch": -2.929615139040948, "mag_len": 1529.0639293371614, "roll_st": "N", "yaw_st": "N", "gyro_x_angle": 243.33334884999977, "gyro_y_angle": 283.6006900899997, "gyro_z_angle": 341.4539393899995, "lat": 43.61605585845453, "lon": -71.12850645365556, "alt": 174.8873897, "mileage": 6.979879557875389, "certainty": 0.5885756623565481}
{"temp": 36.476, "gyro_y": -2.1700000000000004, "gyro_x": -3.43, "mag_z": 780.5, "gyro_z": -0.21000000000000002, "device": "LSM9DS1", "mag_st": "N", "acc_y": 0.7322037155999999, "acc_len": 9.530436091439045, "roll": -1.8556261745309115, "time": "2021-10-23T12:54:07.704582Z", "yaw": -20.676708012841388, "pitch_st": "N", "mag_x": 1198.0, "acc_z": 9.487541608999997, "acc_x": -0.5288137945999999, "class": "ATT", "mag_y": -553.5, "heading": 245.20211699540306, "pitch": -2.8829437620328435, "mag_len": 1533.2144337958732, "roll_st": "N", "yaw_st": "N", "gyro_x_angle": 243.23121030999977, "gyro_y_angle": 283.53607182999974, "gyro_z_angle": 341.44768600999953, "lat": 43.616055755214205, "lon": -71.1285064414168, "alt": 174.88515635, "mileage": 6.979881370956881, "certainty": 0.588517941686059}
{"temp": 36.476, "gyro_y": -2.24, "gyro_x": -4.550000000000001, "mag_z": 788.5, "gyro_z": -0.35000000000000003, "device": "LSM9DS1", "mag_st": "N", "acc_y": 0.8350950873999998, "acc_len": 9.061559160084364, "roll": -1.7855461612054029, "time": "2021-10-23T12:54:07.734268Z", "yaw": -21.129064386698495, "pitch_st": "N", "mag_x": 1178.0, "acc_z": 8.989834508199998, "acc_x": -0.7728816997999999, "class": "ATT", "mag_y": -561.5, "heading": 244.51494698725458, "pitch": -2.8517995157027958, "mag_len": 1524.6961992475747, "roll_st": "N", "yaw_st": "N", "gyro_x_angle": 243.09613900999977, "gyro_y_angle": 283.4695751899997, "gyro_z_angle": 341.43729590999953, "lat": 43.61605565229284, "lon": -71.12850642921585, "alt": 174.8829299, "mileage": 6.979883177736087, "certainty": 0.5884603987206157}
{"temp": 36.476, "gyro_y": -2.5200000000000005, "gyro_x": -3.0100000000000002, "mag_z": 776.5, "gyro_z": -0.56, "device": "LSM9DS1", "mag_st": "N", "acc_y": 0.22013967919999997, "acc_len": 9.11701490636277, "roll": -1.7959653353718323, "time": "2021-10-23T12:54:07.763865Z", "yaw": -21.60369340368151, "pitch_st": "N", "mag_x": 1166.0, "acc_z": 9.111868460799998, "acc_x": -0.21296121139999996, "class": "ATT", "mag_y": -547.5, "heading": 244.84740801302888, "pitch": -2.8541677994121617, "mag_len": 1504.082610763119, "roll_st": "N", "yaw_st": "N", "gyro_x_angle": 243.00705203999976, "gyro_y_angle": 283.3949907499997, "gyro_z_angle": 341.4207215899995, "lat": 43.61605554968004, "lon": -71.12850641705148, "alt": 174.880710125, "mileage": 6.9798849784020645, "certainty": 0.5884030276548131}
{"temp": 36.476, "gyro_y": -1.8900000000000001, "gyro_x": -2.66, "mag_z": 779.5, "gyro_z": -0.56, "device": "LSM9DS1", "mag_st": "N", "acc_y": 0.5359922623999999, "acc_len": 9.689909652249868, "roll": -1.761929150214371, "time": "2021-10-23T12:54:07.793594Z", "yaw": -21.988095067497248, "pitch_st": "N", "mag_x": 1180.0, "acc_z": 9.664610481399999, "acc_x": -0.4498506487999999, "class": "ATT", "mag_y": -543.5, "heading": 245.2695230855232, "pitch": -2.8112622899714683, "mag_len": 1515.0618799243812, "roll_st": "N", "yaw_st": "N", "gyro_x_angle": 242.92797289999976, "gyro_y_angle": 283.3388029399997, "gyro_z_angle": 341.4040733499995, "lat": 43.6160554466096, "lon": -71.12850640483286, "alt": 174.87848044999998, "mileage": 6.97988678639875, "certainty": 0.5883454001230439}
{"temp": 36.476, "gyro_y": -3.7100000000000004, "gyro_x": -1.9600000000000002, "mag_z": 800.5, "gyro_z": -0.35000000000000003, "device": "LSM9DS1", "mag_st": "N", "acc_y": 1.5098710605999996, "acc_len": 10.553091259613085, "roll": -1.8991651207523716, "time": "2021-10-23T12:54:07.823265Z", "yaw": -21.132534703780582, "pitch_st": "N", "mag_x": 1182.0, "acc_z": 10.427920890799998, "acc_x": 0.5886343595999999, "class": "ATT", "mag_y": -559.5, "heading": 244.66945387367116, "pitch": -2.6472455524542644, "mag_len": 1533.2855246169906, "roll_st": "N", "yaw_st": "N", "gyro_x_angle": 242.86981773999975, "gyro_y_angle": 283.2287235299997, "gyro_z_angle": 341.39368849999954, "lat": 43.61605534374024, "lon": -71.12850639263809, "alt": 174.876255125, "mileage": 6.979888590168814, "certainty": 0.5882878844024153}
{"temp": 36.476, "gyro_y": -1.1900000000000002, "gyro_x": -6.720000000000001, "mag_z": 792.5, "gyro_z": -0.56, "device": "LSM9DS1", "mag_st": "N", "acc_y": 0.6101697629999999, "acc_len": 8.974378376169714, "roll": -1.7690801403205398, "time": "2021-10-23T12:54:07.852986Z", "yaw": -21.892331244497885, "pitch_st": "N", "mag_x": 1186.0, "acc_z": 8.898907249399999, "acc_x": -0.9882357337999998, "class": "ATT", "mag_y": -553.5, "heading": 244.9817841793695, "pitch": -2.711434809042758, "mag_len": 1530.0374178431061, "roll_st": "N", "yaw_st": "N", "gyro_x_angle": 242.67009261999974, "gyro_y_angle": 283.1933555399997, "gyro_z_angle": 341.3770447399995, "lat": 43.616055240697534, "lon": -71.12850638042275, "alt": 174.87402605, "mileage": 6.979890396277933, "certainty": 0.5882302711524741}
{"temp": 36.476, "gyro_y": -0.9800000000000001, "gyro_x": -6.16, "mag_z": 783.5, "gyro_z": -0.28, "device": "LSM9DS1", "mag_st": "N", "acc_y": 0.31106693799999996, "acc_len": 8.552190330963926, "roll": -1.6247975057922588, "time": "2021-10-23T12:54:07.882933Z", "yaw": -22.924786393800392, "pitch_st": "N", "mag_x": 1166.0, "acc_z": 8.484948939599999, "acc_x": -1.0241280727999997, "class": "ATT", "mag_y": -571.5, "heading": 243.88880636240992, "pitch": -2.7958937151062186, "mag_len": 1516.588441206117, "roll_st": "N", "yaw_st": "N", "gyro_x_angle": 242.48561909999972, "gyro_y_angle": 283.16400747999967, "gyro_z_angle": 341.36865957999953, "lat": 43.61605513687129, "lon": -71.12850636811454, "alt": 174.871780025, "mileage": 6.979892215411985, "certainty": 0.5881722192191985}
{"temp": 36.476, "gyro_y": -3.9200000000000004, "gyro_x": -3.0100000000000002, "mag_z": 792.5, "gyro_z": -0.21000000000000002, "device": "LSM9DS1", "mag_st": "N", "acc_y": 0.14835500119999998, "acc_len": 9.429720114290136, "roll": -1.7463856069887242, "time": "2021-10-23T12:54:07.912706Z", "yaw": -21.162574051136108, "pitch_st": "N", "mag_x": 1152.0, "acc_z": 9.422935398799998, "acc_x": 0.3254238735999999, "class": "ATT", "mag_y": -553.5, "heading": 244.33716998445217, "pitch": -2.8098750210093755, "mag_len": 1503.8359285507179, "roll_st": "N", "yaw_st": "N", "gyro_x_angle": 242.39600236999974, "gyro_y_angle": 283.04729731999964, "gyro_z_angle": 341.36240724999953, "lat": 43.616055033648294, "lon": -71.12850635587783, "alt": 174.86954705, "mileage": 6.979894023271079, "certainty": 0.5881145039615006}
{"temp": 36.476, "gyro_y": -2.7300000000000004, "gyro_x": -2.87, "mag_z": 766.5, "gyro_z": -0.56, "device": "LSM9DS1", "mag_st": "N", "acc_y": -0.028713871199999994, "acc_len": 10.073682544642518, "roll": -1.7667452764150227, "time": "2021-10-23T12:54:07.942417Z", "yaw": -22.709212481255268, "pitch_st": "N", "mag_x": 1168.0, "acc_z": 10.071390323399998, "acc_x": -0.21296121139999996, "class": "ATT", "mag_y": -559.5, "heading": 244.40446194239706, "pitch": -2.8405365598197414, "mag_len": 1504.9207620336692, "roll_st": "N", "yaw_st": "N", "gyro_x_angle": 242.31073179999973, "gyro_y_angle": 282.96618628999965, "gyro_z_angle": 341.3457690899995, "lat": 43.61605493064026, "lon": -71.12850634366661, "alt": 174.867318725, "mileage": 6.9798958266643165, "certainty": 0.5880569083140663}
{"temp": 36.476, "gyro_y": -2.7300000000000004, "gyro_x": -1.7500000000000002, "mag_z": 771.5, "gyro_z": -0.56, "device": "LSM9DS1", "mag_st": "N", "acc_y": 0.9619146851999998, "acc_len": 10.269866371652524, "roll": -1.836455059057883, "time": "2021-10-23T12:54:07.972059Z", "yaw": -22.00267393305564, "pitch_st": "N", "mag_x": 1174.0, "acc_z": 10.222138147199997, "acc_x": 0.22971096959999995, "class": "ATT", "mag_y": -553.5, "heading": 244.75775948544606, "pitch": -2.7270426097061438, "mag_len": 1509.917381845775, "roll_st": "N", "yaw_st": "N", "gyro_x_angle": 242.25885829999973, "gyro_y_angle": 282.88526362999966, "gyro_z_angle": 341.3291695699995, "lat": 43.616054827871444, "lon": -71.12850633148375, "alt": 174.865095575, "mileage": 6.979897625171785, "certainty": 0.5879994458369164}
{"num_used": 10, "hold": -1, "class": "TPV", "eps": 0.31, "epv": 38.41, "speed": 0.003, "lat": 43.616051264, "lon": -71.128505909, "climb": 0.03, "epc": 76.82, "track": 105.0778, "alt": 174.788, "device": "/dev/serial0", "time": "2021-10-23T12:54:08.000Z", "ept": 0.005, "mode": 3, "epx": 52.345, "epy": 59.616, "num_sat": 14, "mileage": 6.979959564303362, "certainty": 0.586006403556616}
{"temp": 37.014, "gyro_y": -1.4000000000000001, "gyro_x": -3.3600000000000003, "mag_z": 785.5, "gyro_z": -0.6300000000000001, "device": "LSM9DS1", "mag_st": "N", "acc_y": 0.6101697629999999, "acc_len": 9.337970498996578, "roll": -1.7153666079987033, "time": "2021-10-23T12:54:08.001682Z", "yaw": -22.76044946735139, "pitch_st": "N", "mag_x": 1166.0, "acc_z": 9.262616284599998, "acc_x": -1.0145567823999997, "class": "ATT", "mag_y": -559.5, "heading": 244.3661833070369, "pitch": -2.6947013648780116, "mag_len": 1513.1445733967391, "roll_st": "N", "yaw_st": "N", "gyro_x_angle": 242.15932501999973, "gyro_y_angle": 282.84379142999967, "gyro_z_angle": 341.3105070799995, "lat": 43.616055509846454, "lon": -71.12850663976877, "alt": 174.49549282600003, "mileage": 6.97988766997743, "certainty": 0.5885038270395531}
{"temp": 36.476, "gyro_y": -2.1700000000000004, "gyro_x": -3.08, "mag_z": 771.5, "gyro_z": -0.6300000000000001, "device": "LSM9DS1", "mag_st": "N", "acc_y": -0.026321048599999994, "acc_len": 8.989984814671335, "roll": -1.6736908710586391, "time": "2021-10-23T12:54:08.031233Z", "yaw": -24.178243356235015, "pitch_st": "N", "mag_x": 1174.0, "acc_z": 8.973084749999998, "acc_x": -0.5503491979999999, "class": "ATT", "mag_y": -559.5, "heading": 244.5186606279866, "pitch": -2.7333417586839976, "mag_len": 1512.1271441251229, "roll_st": "N", "yaw_st": "N", "gyro_x_angle": 242.06830793999973, "gyro_y_angle": 282.77966575999966, "gyro_z_angle": 341.29188994999953, "lat": 43.61605538416605, "lon": -71.12850661813745, "alt": 174.50415126900003, "mileage": 6.979889815577033, "certainty": 0.5884298814353865}
{"temp": 36.476, "gyro_y": -3.1500000000000004, "gyro_x": -3.43, "mag_z": 767.5, "gyro_z": -0.56, "device": "LSM9DS1", "mag_st": "N", "acc_y": -0.5144568589999999, "acc_len": 10.678843694381124, "roll": -1.8212193375302093, "time": "2021-10-23T12:54:08.060768Z", "yaw": -21.278191391162366, "pitch_st": "N", "mag_x": 1178.0, "acc_z": 10.633703634399998, "acc_x": 0.8350950873999998, "class": "ATT", "mag_y": -575.5, "heading": 243.96264532834434, "pitch": -2.8333717136820766, "mag_len": 1519.190738518373, "roll_st": "N", "yaw_st": "N", "gyro_x_angle": 241.96700288999972, "gyro_y_angle": 282.68663050999965, "gyro_z_angle": 341.27535034999954, "lat": 43.61605525855369, "lon": -71.12850659651782, "alt": 174.51280502400004, "mileage": 6.979891958947573, "certainty": 0.5883559769843435}
{"temp": 36.476, "gyro_y": -2.8000000000000003, "gyro_x": -3.7100000000000004, "mag_z": 786.5, "gyro_z": -0.77, "device": "LSM9DS1", "mag_st": "N", "acc_y": 0.3756731481999999, "acc_len": 11.145011219351236, "roll": -1.9242065625603573, "time": "2021-10-23T12:54:08.090356Z", "yaw": -19.745362356681753, "pitch_st": "N", "mag_x": 1192.0, "acc_z": 11.124232267399998, "acc_x": 0.5670989561999998, "class": "ATT", "mag_y": -573.5, "heading": 244.30666856422118, "pitch": -2.8454050255727146, "mag_len": 1538.9439560945682, "roll_st": "N", "yaw_st": "N", "gyro_x_angle": 241.8572314099997, "gyro_y_angle": 282.60378410999965, "gyro_z_angle": 341.25256758999956, "lat": 43.61605513271593, "lon": -71.12850657485941, "alt": 174.52147430800002, "mileage": 6.979894105094621, "certainty": 0.5882819410703936}
{"temp": 36.476, "gyro_y": -2.0300000000000002, "gyro_x": -5.880000000000001, "mag_z": 769.5, "gyro_z": -0.7000000000000001, "device": "LSM9DS1", "mag_st": "N", "acc_y": -0.2656033085999999, "acc_len": 9.486477603247883, "roll": -1.9632360035744227, "time": "2021-10-23T12:54:08.128941Z", "yaw": -15.807847957226556, "pitch_st": "N", "mag_x": 1178.0, "acc_z": 9.482755963799999, "acc_x": 0.0071784677999999985, "class": "ATT", "mag_y": -551.5, "heading": 244.9125862185913, "pitch": -3.042594008926106, "mag_len": 1511.2797557037545, "roll_st": "N", "yaw_st": "N", "gyro_x_angle": 241.6303516099997, "gyro_y_angle": 282.52545655999967, "gyro_z_angle": 341.22555808999954, "lat": 43.61605496861392, "lon": -71.12850654661518, "alt": 174.53277971300002, "mileage": 6.97989690222512, "certainty": 0.5881853943322953}
{"temp": 36.476, "gyro_y": -3.08, "gyro_x": -2.45, "mag_z": 746.5, "gyro_z": -0.49000000000000005, "device": "LSM9DS1", "mag_st": "N", "acc_y": 1.0983055733999998, "acc_len": 10.804796213103417, "roll": -2.0396447576427477, "time": "2021-10-23T12:54:08.158735Z", "yaw": -15.260221271419365, "pitch_st": "N", "mag_x": 1182.0, "acc_z": 10.746166296599998, "acc_x": 0.23928225999999994, "class": "ATT", "mag_y": -571.5, "heading": 244.19611521488594, "pitch": -2.936749427047027, "mag_len": 1510.2974872520977, "roll_st": "N", "yaw_st": "N", "gyro_x_angle": 241.5573563099997, "gyro_y_angle": 282.43369103999964, "gyro_z_angle": 341.2109590299995, "lat": 43.616054841900045, "lon": -71.12850652480599, "alt": 174.54150935500002, "mileage": 6.979899060827173, "certainty": 0.5881108456449043}
{"temp": 36.476, "gyro_y": -2.31, "gyro_x": -1.7500000000000002, "mag_z": 809.5, "gyro_z": -0.56, "device": "LSM9DS1", "mag_st": "N", "acc_y": 1.4189438017999998, "acc_len": 10.025846457026116, "roll": -1.9834493873851926, "time": "2021-10-23T12:54:08.188637Z", "yaw": -15.506485090624194, "pitch_st": "N", "mag_x": 1184.0, "acc_z": 9.899107096199998, "acc_x": -0.7154539573999998, "class": "ATT", "mag_y": -561.5, "heading": 244.6278273178306, "pitch": -2.7658349428501285, "mag_len": 1540.2689700178992, "roll_st": "N", "yaw_st": "N", "gyro_x_angle": 241.50502780999972, "gyro_y_angle": 282.36461741999966, "gyro_z_angle": 341.1942139099995, "lat": 43.616054714726836, "lon": -71.12850650291772, "alt": 174.55027064100003, "mileage": 6.9799012261632365, "certainty": 0.5880360279059311}
{"temp": 37.014, "gyro_y": -1.1900000000000002, "gyro_x": -6.300000000000001, "mag_z": 791.5, "gyro_z": -0.42000000000000004, "device": "LSM9DS1", "mag_st": "N", "acc_y": -0.06939185539999998, "acc_len": 7.773394223528019, "roll": -1.8631909465876078, "time": "2021-10-23T12:54:08.218524Z", "yaw": -17.11005323932752, "pitch_st": "N", "mag_x": 1168.0, "acc_z": 7.7336026431999985, "acc_x": -0.7824529901999998, "class": "ATT", "mag_y": -573.5, "heading": 243.84848739531662, "pitch": -2.9058623274644795, "mag_len": 1523.0228166380175, "roll_st": "N", "yaw_st": "N", "gyro_x_angle": 241.31673970999972, "gyro_y_angle": 282.3290518899997, "gyro_z_angle": 341.1816613699995, "lat": 43.61605458761743, "lon": -71.12850648104043, "alt": 174.55902753200002, "mileage": 6.9799033893212306, "certainty": 0.5879612489126139}
{"temp": 36.476, "gyro_y": -0.21000000000000002, "gyro_x": -6.300000000000001, "mag_z": 776.5, "gyro_z": -0.6300000000000001, "device": "LSM9DS1", "mag_st": "N", "acc_y": -0.04546362939999999, "acc_len": 9.268707294657647, "roll": -1.7477309976909368, "time": "2021-10-23T12:54:08.248534Z", "yaw": -18.66271276701955, "pitch_st": "N", "mag_x": 1170.0, "acc_z": 9.243473703799998, "acc_x": -0.6819544409999999, "class": "ATT", "mag_y": -553.5, "heading": 244.68224928121143, "pitch": -3.039172130132195, "mag_len": 1509.3755331261998, "roll_st": "N", "yaw_st": "N", "gyro_x_angle": 241.12767670999972, "gyro_y_angle": 282.32274978999965, "gyro_z_angle": 341.1627550699995, "lat": 43.616054459984895, "lon": -71.12850645907311, "alt": 174.56782046200001, "mileage": 6.979905560283875, "certainty": 0.587886163369993}
{"temp": 36.476, "gyro_y": -2.5900000000000003, "gyro_x": -4.69, "mag_z": 779.5, "gyro_z": -0.77, "device": "LSM9DS1", "mag_st": "N", "acc_y": -0.14596217859999996, "acc_len": 9.972643313504154, "roll": -1.8262397098475418, "time": "2021-10-23T12:54:08.278248Z", "yaw": -16.034970864570997, "pitch_st": "N", "mag_x": 1190.0, "acc_z": 9.966106128999998, "acc_x": 0.33020951879999993, "class": "ATT", "mag_y": -557.5, "heading": 244.89750204201988, "pitch": -3.131903471523026, "mag_len": 1527.9157372054258, "roll_st": "N", "yaw_st": "N", "gyro_x_angle": 240.98831804999972, "gyro_y_angle": 282.2457905299996, "gyro_z_angle": 341.1398752899995, "lat": 43.61605433361125, "lon": -71.12850643732247, "alt": 174.57652666400003, "mileage": 6.979907708749828, "certainty": 0.5878118196506065}
{"temp": 36.476, "gyro_y": -2.3800000000000003, "gyro_x": -3.22, "mag_z": 763.5, "gyro_z": -0.56, "device": "LSM9DS1", "mag_st": "N", "acc_y": 0.7944171031999998, "acc_len": 9.466011346900952, "roll": -1.8957289827565802, "time": "2021-10-23T12:54:08.307856Z", "yaw": -15.311860752077846, "pitch_st": "N", "mag_x": 1188.0, "acc_z": 9.427721043999998, "acc_x": 0.3038884701999999, "class": "ATT", "mag_y": -571.5, "heading": 244.30962559404333, "pitch": -3.0664082626444364, "mag_len": 1523.4462576671353, "roll_st": "N", "yaw_st": "N", "gyro_x_angle": 240.8929802899997, "gyro_y_angle": 282.17532348999964, "gyro_z_angle": 341.1232948099995, "lat": 43.61605420768843, "lon": -71.12850641564941, "alt": 174.58520180800002, "mileage": 6.979909848478856, "certainty": 0.5877377423316232}
{"temp": 36.476, "gyro_y": -3.1500000000000004, "gyro_x": -3.6400000000000006, "mag_z": 793.5, "gyro_z": -0.42000000000000004, "device": "LSM9DS1", "mag_st": "N", "acc_y": 0.9762716207999999, "acc_len": 9.17278299176225, "roll": -1.9059576794387567, "time": "2021-10-23T12:54:08.337383Z", "yaw": -15.404077313700913, "pitch_st": "N", "mag_x": 1174.0, "acc_z": 9.114261283399998, "acc_x": -0.34217363179999993, "class": "ATT", "mag_y": -569.5, "heading": 244.12226881926645, "pitch": -2.9881236219680396, "mag_len": 1527.1700953070028, "roll_st": "N", "yaw_st": "N", "gyro_x_angle": 240.7855020099997, "gyro_y_angle": 282.08231343999967, "gyro_z_angle": 341.1108934699995, "lat": 43.616054082110104, "lon": -71.12850639403564, "alt": 174.59385321900004, "mileage": 6.979911981288104, "certainty": 0.5876638688734689}
{"temp": 36.476, "gyro_y": -1.9600000000000002, "gyro_x": -2.45, "mag_z": 770.5, "gyro_z": -0.7000000000000001, "device": "LSM9DS1", "mag_st": "N", "acc_y": 0.4019941967999999, "acc_len": 9.382809071840253, "roll": -1.8915308969711617, "time": "2021-10-23T12:54:08.367105Z", "yaw": -15.794774087188568, "pitch_st": "N", "mag_x": 1166.0, "acc_z": 9.370293301599999, "acc_x": -0.27038895379999994, "class": "ATT", "mag_y": -563.5, "heading": 244.20662911540126, "pitch": -2.950167581590385, "mag_len": 1506.903613374127, "roll_st": "N", "yaw_st": "N", "gyro_x_angle": 240.71268310999972, "gyro_y_angle": 282.02405831999965, "gyro_z_angle": 341.0900880699995, "lat": 43.616053955702434, "lon": -71.12850637227913, "alt": 174.60256176500002, "mileage": 6.979914127108398, "certainty": 0.5875895087737449}
{"temp": 36.476, "gyro_y": -0.9100000000000001, "gyro_x": -3.3600000000000003, "mag_z": 774.5, "gyro_z": -0.56, "device": "LSM9DS1", "mag_st": "N", "acc_y": 0.29910282499999996, "acc_len": 9.1614718567565, "roll": -1.7733428384882473, "time": "2021-10-23T12:54:08.397066Z", "yaw": -16.909367422239246, "pitch_st": "N", "mag_x": 1166.0, "acc_z": 9.116654105999999, "acc_x": -0.8542376681999998, "class": "ATT", "mag_y": -565.5, "heading": 244.12701258717226, "pitch": -2.952178329943636, "mag_len": 1509.7007981716113, "roll_st": "N", "yaw_st": "N", "gyro_x_angle": 240.6120141499997, "gyro_y_angle": 281.99679380999964, "gyro_z_angle": 341.0733099099995, "lat": 43.616053828278304, "lon": -71.12850635034769, "alt": 174.61134033800002, "mileage": 6.979916289092229, "certainty": 0.5875145519824949}
{"temp": 36.476, "gyro_y": -4.0600000000000005, "gyro_x": -2.0300000000000002, "mag_z": 782.5, "gyro_z": -0.8400000000000001, "device": "LSM9DS1", "mag_st": "N", "acc_y": 0.7776673449999998, "acc_len": 10.392448650891609, "roll": -1.7930447529027305, "time": "2021-10-23T12:54:08.416985Z", "yaw": -16.90705921458007, "pitch_st": "N", "mag_x": 1192.0, "acc_z": 10.360921857999998, "acc_x": -0.22253250179999995, "class": "ATT", "mag_y": -577.5, "heading": 244.15074607107067, "pitch": -2.847174421478296, "mag_len": 1538.4006305250919, "roll_st": "N", "yaw_st": "N", "gyro_x_angle": 240.5715785799997, "gyro_y_angle": 281.91592266999965, "gyro_z_angle": 341.0565779499995, "lat": 43.616053743562794, "lon": -71.12850633576699, "alt": 174.61717660500003, "mileage": 6.9799177258400285, "certainty": 0.5874647190828675}
{"temp": 36.476, "gyro_y": -2.31, "gyro_x": -3.3600000000000003, "mag_z": 762.5, "gyro_z": -0.21000000000000002, "device": "LSM9DS1", "mag_st": "N", "acc_y": 1.0049854919999999, "acc_len": 8.063933577306884, "roll": -1.6592491955276785, "time": "2021-10-23T12:54:08.446776Z", "yaw": -17.552515628317327, "pitch_st": "N", "mag_x": 1186.0, "acc_z": 7.917849983399998, "acc_x": -1.1509476705999997, "class": "ATT", "mag_y": -559.5, "heading": 244.74422701568884, "pitch": -2.743707767231466, "mag_len": 1516.9187519442166, "roll_st": "N", "yaw_st": "N", "gyro_x_angle": 240.4714808199997, "gyro_y_angle": 281.8471054599996, "gyro_z_angle": 341.0503218399995, "lat": 43.61605361686167, "lon": -71.12850631395997, "alt": 174.62590536800002, "mileage": 6.979919873747062, "certainty": 0.5873901896921623}
{"temp": 36.476, "gyro_y": -1.9600000000000002, "gyro_x": -4.0600000000000005, "mag_z": 810.5, "gyro_z": -0.42000000000000004, "device": "LSM9DS1", "mag_st": "N", "acc_y": -0.08614161359999999, "acc_len": 9.501216104682744, "roll": -1.6173836584611934, "time": "2021-10-23T12:54:08.476504Z", "yaw": -19.193165838657126, "pitch_st": "N", "mag_x": 1168.0, "acc_z": 9.485148786399998, "acc_x": -0.5455635527999999, "class": "ATT", "mag_y": -569.5, "heading": 244.0068030417296, "pitch": -2.8176374707681107, "mag_len": 1531.4909402278552, "roll_st": "N", "yaw_st": "N", "gyro_x_angle": 240.3507851399997, "gyro_y_angle": 281.7888385799996, "gyro_z_angle": 341.0378360799995, "lat": 43.616053490428484, "lon": -71.12850629219908, "alt": 174.63461567200002, "mileage": 6.979922016032788, "certainty": 0.5873158191615415}
{"temp": 35.938, "gyro_y": -2.3800000000000003, "gyro_x": -4.970000000000001, "mag_z": 786.5, "gyro_z": -0.49000000000000005, "device": "LSM9DS1", "mag_st": "N", "acc_y": -0.08135596839999998, "acc_len": 9.469259788410318, "roll": -1.6256767347735348, "time": "2021-10-23T12:54:08.506073Z", "yaw": -21.006185825731787, "pitch_st": "N", "mag_x": 1154.0, "acc_z": 9.466006205599998, "acc_x": -0.23449661479999995, "class": "ATT", "mag_y": -559.5, "heading": 244.13425229485722, "pitch": -2.9152675562934967, "mag_len": 1504.4395966604973, "roll_st": "N", "yaw_st": "N", "gyro_x_angle": 240.20382720999967, "gyro_y_angle": 281.7184643599996, "gyro_z_angle": 341.02334726999953, "lat": 43.61605336467153, "lon": -71.12850627055457, "alt": 174.643279389, "mileage": 6.97992414579139, "certainty": 0.5872418476539115}
{"temp": 36.476, "gyro_y": -3.0100000000000002, "gyro_x": -3.6400000000000006, "mag_z": 783.5, "gyro_z": -0.56, "device": "LSM9DS1", "mag_st": "N", "acc_y": -0.07896314579999998, "acc_len": 9.899976964964228, "roll": -1.7609959440328282, "time": "2021-10-23T12:54:08.543478Z", "yaw": -18.626262793971193, "pitch_st": "N", "mag_x": 1184.0, "acc_z": 9.887142983199999, "acc_x": 0.4977071007999999, "class": "ATT", "mag_y": -559.5, "heading": 244.70689206959608, "pitch": -2.999375724214394, "mag_len": 1526.030307693789, "roll_st": "N", "yaw_st": "N", "gyro_x_angle": 240.06767300999968, "gyro_y_angle": 281.6058753099996, "gyro_z_angle": 341.00240046999954, "lat": 43.61605320558807, "lon": -71.1285062431741, "alt": 174.65423905400002, "mileage": 6.979926838424469, "certainty": 0.5871482749634563}
{"temp": 36.476, "gyro_y": -2.45, "gyro_x": -3.1500000000000004, "mag_z": 761.5, "gyro_z": -0.6300000000000001, "device": "LSM9DS1", "mag_st": "N", "acc_y": 0.5958128273999999, "acc_len": 9.92377674061726, "roll": -1.8396764036142628, "time": "2021-10-23T12:54:08.573252Z", "yaw": -17.640754094957533, "pitch_st": "N", "mag_x": 1178.0, "acc_z": 9.899107096199998, "acc_x": 0.36610185779999993, "class": "ATT", "mag_y": -575.5, "heading": 243.96264532834434, "pitch": -2.962480223473345, "mag_len": 1516.1683613636053, "roll_st": "N", "yaw_st": "N", "gyro_x_angle": 239.97388490999967, "gyro_y_angle": 281.5329290099996, "gyro_z_angle": 340.98364284999957, "lat": 43.61605307895924, "lon": -71.12850622137954, "alt": 174.66296283600002, "mileage": 6.979928980514253, "certainty": 0.5870737935080227}
{"temp": 36.476, "gyro_y": -3.8500000000000005, "gyro_x": -3.08, "mag_z": 777.5, "gyro_z": -0.8400000000000001, "device": "LSM9DS1", "mag_st": "N", "acc_y": 0.44027935839999993, "acc_len": 10.059188575948191, "roll": -1.8327054396509226, "time": "2021-10-23T12:54:08.602988Z", "yaw": -18.485384078793526, "pitch_st": "N", "mag_x": 1166.0, "acc_z": 10.023533871399998, "acc_x": -0.7226324251999998, "class": "ATT", "mag_y": -553.5, "heading": 244.60631600610654, "pitch": -2.9427635392713474, "mag_len": 1506.792786019365, "roll_st": "N", "yaw_st": "N", "gyro_x_angle": 239.88229802999967, "gyro_y_angle": 281.41844540999955, "gyro_z_angle": 340.9586646099996, "lat": 43.61605295249203, "lon": -71.12850619961279, "alt": 174.67167548400002, "mileage": 6.9799311187918684, "certainty": 0.5869994084012914}
{"temp": 36.476, "gyro_y": -5.11, "gyro_x": -3.5000000000000004, "mag_z": 811.5, "gyro_z": -0.77, "device": "LSM9DS1", "mag_st": "N", "acc_y": 0.18424734019999997, "acc_len": 10.088360859068265, "roll": -1.8983903754962625, "time": "2021-10-23T12:54:08.632603Z", "yaw": -19.448121430414822, "pitch_st": "N", "mag_x": 1168.0, "acc_z": 10.078568791199999, "acc_x": -0.40438701939999994, "class": "ATT", "mag_y": -559.5, "heading": 244.40446194239706, "pitch": -2.964532200871592, "mag_len": 1528.3312795333347, "roll_st": "N", "yaw_st": "N", "gyro_x_angle": 239.77864552999966, "gyro_y_angle": 281.2671127599996, "gyro_z_angle": 340.9358610599996, "lat": 43.61605282653944, "lon": -71.1285061779346, "alt": 174.680352679, "mileage": 6.979933247297843, "certainty": 0.5869253272584913}
{"temp": 37.014, "gyro_y": -3.2900000000000005, "gyro_x": -3.22, "mag_z": 779.5, "gyro_z": -0.28, "device": "LSM9DS1", "mag_st": "N", "acc_y": -0.4857429877999999, "acc_len": 10.320784228124177, "roll": -1.972317747577307, "time": "2021-10-23T12:54:08.662183Z", "yaw": -15.80695158055628, "pitch_st": "N", "mag_x": 1190.0, "acc_z": 10.308279760799998, "acc_x": 0.14835500119999998, "class": "ATT", "mag_y": -539.5, "heading": 245.61229758994662, "pitch": -3.052573672852075, "mag_len": 1521.4402715847903, "roll_st": "N", "yaw_st": "N", "gyro_x_angle": 239.68339792999967, "gyro_y_angle": 281.16979455999956, "gyro_z_angle": 340.9275786599996, "lat": 43.6160527007357, "lon": -71.12850615628204, "alt": 174.68901961900002, "mileage": 6.979935372221895, "certainty": 0.5868513349720387}
{"temp": 36.476, "gyro_y": -2.8000000000000003, "gyro_x": -5.8100000000000005, "mag_z": 811.5, "gyro_z": -0.56, "device": "LSM9DS1", "mag_st": "N", "acc_y": 0.24885355039999996, "acc_len": 9.792446625182357, "roll": -2.0403965760520606, "time": "2021-10-23T12:54:08.691668Z", "yaw": -14.658785255338824, "pitch_st": "N", "mag_x": 1166.0, "acc_z": 9.786644433999998, "acc_x": 0.22731814699999994, "class": "ATT", "mag_y": -569.5, "heading": 243.96810112224787, "pitch": -3.130285476579867, "mag_len": 1530.4961613803544, "roll_st": "N", "yaw_st": "N", "gyro_x_angle": 239.51209007999967, "gyro_y_angle": 281.08723655999955, "gyro_z_angle": 340.9110670599996, "lat": 43.61605257533599, "lon": -71.12850613469902, "alt": 174.697658724, "mileage": 6.979937489261143, "certainty": 0.5867775816032691}
{"temp": 36.476, "gyro_y": -2.0300000000000002, "gyro_x": -6.16, "mag_z": 785.5, "gyro_z": -0.7000000000000001, "device": "LSM9DS1", "mag_st": "N", "acc_y": 0.7680960545999999, "acc_len": 9.65419736701917, "roll": -1.996516997404811, "time": "2021-10-23T12:54:08.721227Z", "yaw": -15.06706440657335, "pitch_st": "N", "mag_x": 1164.0, "acc_z": 9.609575561599998, "acc_x": -0.5192425041999998, "class": "ATT", "mag_y": -547.5, "heading": 244.80954463509548, "pitch": -3.1546671854104518, "mag_len": 1507.2035363546624, "roll_st": "N", "yaw_st": "N", "gyro_x_angle": 239.33000663999965, "gyro_y_angle": 281.0272317899996, "gyro_z_angle": 340.8903757599996, "lat": 43.61605244962157, "lon": -71.12850611306183, "alt": 174.706319511, "mileage": 6.97993961055104, "certainty": 0.5867036444471038}
{"temp": 36.476, "gyro_y": -2.66, "gyro_x": -1.6800000000000002, "mag_z": 788.5, "gyro_z": -0.42000000000000004, "device": "LSM9DS1", "mag_st": "N", "acc_y": 1.9956140483999996, "acc_len": 10.505451842019255, "roll": -2.0167813120277316, "time": "2021-10-23T12:54:08.750751Z", "yaw": -14.864269975838168, "pitch_st": "N", "mag_x": 1158.0, "acc_z": 10.313065405999998, "acc_x": -0.15074782379999996, "class": "ATT", "mag_y": -559.5, "heading": 244.21199573685817, "pitch": -2.9211380878525697, "mag_len": 1508.5544405158205, "roll_st": "N", "yaw_st": "N", "gyro_x_angle": 239.28040631999966, "gyro_y_angle": 280.9486979499996, "gyro_z_angle": 340.87797567999957, "lat": 43.616052324056, "lon": -71.12850609145026, "alt": 174.71497004300002, "mileage": 6.979941728267517, "certainty": 0.5866297961407516}
{"temp": 36.476, "gyro_y": -3.1500000000000004, "gyro_x": -2.0300000000000002, "mag_z": 802.5, "gyro_z": -0.28, "device": "LSM9DS1", "mag_st": "N", "acc_y": 0.7728816997999999, "acc_len": 9.470152816232169, "roll": -2.012710386230367, "time": "2021-10-23T12:54:08.780300Z", "yaw": -15.181762117889058, "pitch_st": "N", "mag_x": 1178.0, "acc_z": 9.427721043999998, "acc_x": -0.45224347139999993, "class": "ATT", "mag_y": -565.5, "heading": 244.35662239985797, "pitch": -2.827751068962807, "mag_len": 1533.4537815010924, "roll_st": "N", "yaw_st": "N", "gyro_x_angle": 239.22042184999967, "gyro_y_angle": 280.8556185999996, "gyro_z_angle": 340.8697019599996, "lat": 43.6160521983841, "lon": -71.1285060698204, "alt": 174.72362790000003, "mileage": 6.979943846715349, "certainty": 0.5865558866274644}
{"temp": 36.476, "gyro_y": -1.4700000000000002, "gyro_x": -5.32, "mag_z": 780.5, "gyro_z": -0.28, "device": "LSM9DS1", "mag_st": "N", "acc_y": 0.9643075077999999, "acc_len": 9.76465695784103, "roll": -1.980390579206528, "time": "2021-10-23T12:54:08.809999Z", "yaw": -15.22570562689274, "pitch_st": "N", "mag_x": 1172.0, "acc_z": 9.712466933399998, "acc_x": -0.29431717979999994, "class": "ATT", "mag_y": -555.5, "heading": 244.64016594638994, "pitch": -2.8121417739290546, "mag_len": 1513.7187651608208, "roll_st": "N", "yaw_st": "N", "gyro_x_angle": 239.06242316999968, "gyro_y_angle": 280.8119610699996, "gyro_z_angle": 340.8613862399996, "lat": 43.616052072074254, "lon": -71.12850604808072, "alt": 174.73232970700002, "mileage": 6.979945974846318, "certainty": 0.5864816032577046}
{"temp": 36.476, "gyro_y": -3.0100000000000002, "gyro_x": -2.3800000000000003, "mag_z": 795.5, "gyro_z": -0.9100000000000001, "device": "LSM9DS1", "mag_st": "N", "acc_y": 0.7274180703999998, "acc_len": 10.823293414185422, "roll": -2.0265526595339196, "time": "2021-10-23T12:54:08.839623Z", "yaw": -14.974040852357271, "pitch_st": "N", "mag_x": 1174.0, "acc_z": 10.798808393799998, "acc_x": -0.016749758199999996, "class": "ATT", "mag_y": -569.5, "heading": 244.12226881926645, "pitch": -2.748048839852573, "mag_len": 1528.21022768466, "roll_st": "N", "yaw_st": "N", "gyro_x_angle": 238.99191804999967, "gyro_y_angle": 280.7227928299996, "gyro_z_angle": 340.8344283999996, "lat": 43.61605194608338, "lon": -71.12850602639597, "alt": 174.741009539, "mileage": 6.9799480965343985, "certainty": 0.5864075088322144}
{"temp": 36.476, "gyro_y": -2.1, "gyro_x": -2.45, "mag_z": 799.5, "gyro_z": -0.28, "device": "LSM9DS1", "mag_st": "N", "acc_y": 0.8973084749999998, "acc_len": 10.048815127818115, "roll": -1.9688537967844724, "time": "2021-10-23T12:54:08.869397Z", "yaw": -15.42935731708738, "pitch_st": "N", "mag_x": 1170.0, "acc_z": 9.985248709799999, "acc_x": -0.6843472635999999, "class": "ATT", "mag_y": -557.5, "heading": 244.5223998929308, "pitch": -2.661841320672885, "mag_len": 1522.7956199043915, "roll_st": "N", "yaw_st": "N", "gyro_x_angle": 238.91897174999966, "gyro_y_angle": 280.6602674299996, "gyro_z_angle": 340.8260916799996, "lat": 43.61605181945456, "lon": -71.12850600460139, "alt": 174.749733321, "mileage": 6.979950227889838, "certainty": 0.5863330405861393}
{"temp": 36.476, "gyro_y": -1.61, "gyro_x": -5.880000000000001, "mag_z": 784.5, "gyro_z": -0.42000000000000004, "device": "LSM9DS1", "mag_st": "N", "acc_y": 1.6175480775999997, "acc_len": 8.638234082111891, "roll": -1.854025859629587, "time": "2021-10-23T12:54:08.899113Z", "yaw": -15.717265890216023, "pitch_st": "N", "mag_x": 1158.0, "acc_z": 8.437092487599998, "acc_x": -0.9044869427999999, "class": "ATT", "mag_y": -559.5, "heading": 244.21199573685817, "pitch": -2.562934368629191, "mag_len": 1506.4675569025708, "roll_st": "N", "yaw_st": "N", "gyro_x_angle": 238.74424166999967, "gyro_y_angle": 280.6124246699996, "gyro_z_angle": 340.8136109599996, "lat": 43.61605169307241, "lon": -71.12850598284928, "alt": 174.75844010900002, "mileage": 6.979952354018877, "certainty": 0.586258718763292}
{"temp": 36.476, "gyro_y": -0.8400000000000001, "gyro_x": -4.83, "mag_z": 819.5, "gyro_z": -0.8400000000000001, "device": "LSM9DS1", "mag_st": "N", "acc_y": -0.28474588939999995, "acc_len": 9.661844921195575, "roll": -1.8336989573980276, "time": "2021-10-23T12:54:08.928758Z", "yaw": -18.771670930991665, "pitch_st": "N", "mag_x": 1168.0, "acc_z": 9.657432013599998, "acc_x": -0.06460621019999999, "class": "ATT", "mag_y": -541.5, "heading": 245.12694724661918, "pitch": -2.685864567295736, "mag_len": 1526.1148384050264, "roll_st": "N", "yaw_st": "N", "gyro_x_angle": 238.60105631999966, "gyro_y_angle": 280.5875228699996, "gyro_z_angle": 340.7887091599996, "lat": 43.616051566992226, "lon": -71.12850596114914, "alt": 174.76712609400002, "mileage": 6.979954473998109, "certainty": 0.5861845759000228}
{"temp": 36.476, "gyro_y": -2.31, "gyro_x": -4.83, "mag_z": 807.5, "gyro_z": -0.56, "device": "LSM9DS1", "mag_st": "N", "acc_y": -0.6580262149999999, "acc_len": 10.167483064701942, "roll": -1.9088166796129258, "time": "2021-10-23T12:54:08.958331Z", "yaw": -15.434794512220416, "pitch_st": "N", "mag_x": 1182.0, "acc_z": 10.138389356199998, "acc_x": 0.3972085515999999, "class": "ATT", "mag_y": -575.5, "heading": 244.0391683574561, "pitch": -2.8463400643729857, "mag_len": 1542.8481778840069, "roll_st": "N", "yaw_st": "N", "gyro_x_angle": 238.45821872999966, "gyro_y_angle": 280.5192092399996, "gyro_z_angle": 340.7721482799996, "lat": 43.616051441218254, "lon": -71.12850593950171, "alt": 174.775790983, "mileage": 6.979956587764456, "certainty": 0.586110614476992}
{"temp": 36.476, "gyro_y": -2.66, "gyro_x": -4.0600000000000005, "mag_z": 796.5, "gyro_z": -0.8400000000000001, "device": "LSM9DS1", "mag_st": "N", "acc_y": 0.5647061335999999, "acc_len": 10.480565173225889, "roll": -1.8667220040288015, "time": "2021-10-23T12:54:08.998532Z", "yaw": -16.365461746417456, "pitch_st": "N", "mag_x": 1172.0, "acc_z": 10.418349600399997, "acc_x": -0.9906285563999998, "class": "ATT", "mag_y": -543.5, "heading": 245.12109090032118, "pitch": -2.887189150373733, "mag_len": 1517.691833014858, "roll_st": "N", "yaw_st": "N", "gyro_x_angle": 238.29500266999966, "gyro_y_angle": 280.41227457999963, "gyro_z_angle": 340.7383794399996, "lat": 43.6160512702434, "lon": -71.12850591007458, "alt": 174.78756987600002, "mileage": 6.979959459475729, "certainty": 0.5860100748665267}
{"num_used": 10, "hold": -1, "class": "TPV", "eps": 0.31, "epv": 38.41, "speed": 0.013, "lat": 43.616047011, "lon": -71.128505177, "climb": 0.039, "epc": 76.82, "track": 136.0477, "alt": 175.081, "device": "/dev/serial0", "time": "2021-10-23T12:54:09.000Z", "ept": 0.005, "mode": 3, "epx": 52.345, "epy": 59.616, "num_sat": 14, "mileage": 6.9800303660269085, "certainty": 0.5835063563545677}
{"temp": 36.476, "gyro_y": -2.8000000000000003, "gyro_x": -2.7300000000000004, "mag_z": 776.5, "gyro_z": -0.8400000000000001, "device": "LSM9DS1", "mag_st": "N", "acc_y": 1.5218351735999998, "acc_len": 10.848906994470532, "roll": -1.8622693426288635, "time": "2021-10-23T12:54:09.028333Z", "yaw": -16.39869227587345, "pitch_st": "N", "mag_x": 1194.0, "acc_z": 10.731809360999998, "acc_x": -0.4594219391999999, "class": "ATT", "mag_y": -565.5, "heading": 244.65691828387054, "pitch": -2.747883970093594, "mag_len": 1532.4420054279378, "roll_st": "N", "yaw_st": "N", "gyro_x_angle": 238.21364593999965, "gyro_y_angle": 280.32883177999963, "gyro_z_angle": 340.7133465999996, "lat": 43.61604871044558, "lon": -71.12850618753367, "alt": 175.00909664199997, "mileage": 6.98000858589879, "certainty": 0.5848879306418463}
{"temp": 36.476, "gyro_y": -1.9600000000000002, "gyro_x": -2.0300000000000002, "mag_z": 788.5, "gyro_z": -0.56, "device": "LSM9DS1", "mag_st": "N", "acc_y": 0.6412764567999999, "acc_len": 9.815043593232986, "roll": -1.771104957745763, "time": "2021-10-23T12:54:09.057918Z", "yaw": -17.20383507182177, "pitch_st": "N", "mag_x": 1166.0, "acc_z": 9.748359272399998, "acc_x": -0.9451649269999998, "class": "ATT", "mag_y": -553.5, "heading": 244.60631600610654, "pitch": -2.676521465046669, "mag_len": 1512.4980991723594, "roll_st": "N", "yaw_st": "N", "gyro_x_angle": 238.15358838999964, "gyro_y_angle": 280.27084517999964, "gyro_z_angle": 340.69677899999965, "lat": 43.616048658701416, "lon": -71.12850615676527, "alt": 175.01128593199996, "mileage": 6.9800092521037875, "certainty": 0.584845813333685}
{"temp": 36.476, "gyro_y": -1.61, "gyro_x": -4.2, "mag_z": 806.5, "gyro_z": -0.49000000000000005, "device": "LSM9DS1", "mag_st": "N", "acc_y": 0.019142580799999996, "acc_len": 8.63781284931352, "roll": -1.6933624924821657, "time": "2021-10-23T12:54:09.087478Z", "yaw": -18.641225247979516, "pitch_st": "N", "mag_x": 1172.0, "acc_z": 8.611768537399998, "acc_x": -0.6699903279999999, "class": "ATT", "mag_y": -563.5, "heading": 244.32165707215177, "pitch": -2.7421445826697552, "mag_len": 1530.2151809467844, "roll_st": "N", "yaw_st": "N", "gyro_x_angle": 238.02943638999963, "gyro_y_angle": 280.22325357999966, "gyro_z_angle": 340.68229459999964, "lat": 43.61604860700098, "lon": -71.12850612602287, "alt": 175.01347337199996, "mileage": 6.980009917554142, "certainty": 0.5848037348584231}
{"temp": 37.014, "gyro_y": -1.7500000000000002, "gyro_x": -4.83, "mag_z": 805.5, "gyro_z": -0.6300000000000001, "device": "LSM9DS1", "mag_st": "N", "acc_y": -0.7752745223999998, "acc_len": 10.63948489693678, "roll": -1.7965135788984128, "time": "2021-10-23T12:54:09.117045Z", "yaw": -15.604041232865393, "pitch_st": "N", "mag_x": 1168.0, "acc_z": 10.581061537199998, "acc_x": 0.7992027483999998, "class": "ATT", "mag_y": -573.5, "heading": 243.84848739531662, "pitch": -2.910851207853484, "mag_len": 1530.3452224906641, "roll_st": "N", "yaw_st": "N", "gyro_x_angle": 237.88662777999963, "gyro_y_angle": 280.17151132999965, "gyro_z_angle": 340.66366738999966, "lat": 43.616048555288295, "lon": -71.1285060952732, "alt": 175.01566132999997, "mileage": 6.980010582970273, "certainty": 0.5847616496455776}
{"temp": 37.014, "gyro_y": -2.0300000000000002, "gyro_x": -4.41, "mag_z": 772.5, "gyro_z": -0.6300000000000001, "device": "LSM9DS1", "mag_st": "N", "acc_y": 0.4259224227999999, "acc_len": 11.341800670530903, "roll": -1.8883857973792715, "time": "2021-10-23T12:54:09.146560Z", "yaw": -14.14995830862785, "pitch_st": "N", "mag_x": 1158.0, "acc_z": 11.313265252799997, "acc_x": 0.6819544409999999, "class": "ATT", "mag_y": -555.5, "heading": 244.37266820188, "pitch": -2.9372751234613994, "mag_len": 1498.766326016167, "roll_st": "N", "yaw_st": "N", "gyro_x_angle": 237.75646662999964, "gyro_y_angle": 280.11159587999964, "gyro_z_angle": 340.64507293999964, "lat": 43.616048503666555, "lon": -71.12850606457759, "alt": 175.01784543999997, "mileage": 6.980011247024971, "certainty": 0.5847196416735562}
{"temp": 36.476, "gyro_y": -2.1700000000000004, "gyro_x": -4.41, "mag_z": 797.5, "gyro_z": -0.49000000000000005, "device": "LSM9DS1", "mag_st": "N", "acc_y": 0.35653056739999994, "acc_len": 9.293521828803296, "roll": -1.9071604481148654, "time": "2021-10-23T12:54:09.176070Z", "yaw": -14.041574950883106, "pitch_st": "N", "mag_x": 1174.0, "acc_z": 9.286544510599999, "acc_x": -0.05024927459999999, "class": "ATT", "mag_y": -559.5, "heading": 244.5186606279866, "pitch": -2.9620666537555644, "mag_len": 1525.5564558547153, "roll_st": "N", "yaw_st": "N", "gyro_x_angle": 237.62632752999963, "gyro_y_angle": 280.04755917999967, "gyro_z_angle": 340.6306130399996, "lat": 43.61604845205357, "lon": -71.12850603388719, "alt": 175.02002917999997, "mileage": 6.9800119107759775, "certainty": 0.5846776440387121}
